{"data": [{"regionName": "Guangdong", "totalConfirmed": 1352, "lat": 23.1357694, "lon": 113.1982688}, {"regionName": "Hubei", "totalConfirmed": 67707, "lat": 22.5470067, "lon": 114.1204833}, {"regionName": "Hong Kong", "totalConfirmed": 114, "lat": 22.350627, "lon": 114.1849161}, {"regionName": "Korea", "totalConfirmed": 7314, "lat": 11.565187, "lon": 104.923458}, {"regionName": "Iran", "totalConfirmed": 6566, "lat": 43.308723, "lon": 44.088177}, {"regionName": "Egypt", "totalConfirmed": 33, "lat": 26.2540493, "lon": 29.2675469}, {"regionName": "Hunan", "totalConfirmed": 1018, "lat": 24.4542622, "lon": 118.3333092}, {"regionName": "Sichuan", "totalConfirmed": 539, "lat": 17.9671454, "lon": 102.6060253}, {"regionName": "Ireland", "totalConfirmed": 19, "lat": 52.865196, "lon": -7.9794599}, {"regionName": "San Marino", "totalConfirmed": 26, "lat": 43.9458623, "lon": 12.458306}, {"regionName": "Iraq", "totalConfirmed": 54, "lat": 33.0955793, "lon": 44.1749775}, {"regionName": "Finland", "totalConfirmed": 19, "lat": 63.2467777, "lon": 25.9209164}, {"regionName": "Austria", "totalConfirmed": 79, "lat": 47.2000338, "lon": 13.199959}, {"regionName": "South Africa", "totalConfirmed": 2, "lat": -28.8166236, "lon": 24.991639}, {"regionName": "Maldives", "totalConfirmed": 2, "lat": 4.7064352, "lon": 73.3287853}, {"regionName": "India", "totalConfirmed": 39, "lat": 22.3511148, "lon": 78.6677428}, {"regionName": "Israel", "totalConfirmed": 25, "lat": 31.5313113, "lon": 34.8667654}, {"regionName": "Mexico", "totalConfirmed": 7, "lat": 22.5000485, "lon": -100.0000375}, {"regionName": "Canada", "totalConfirmed": 60, "lat": 61.0666922, "lon": -107.9917071}, {"regionName": "Russia", "totalConfirmed": 10, "lat": 64.6863136, "lon": 97.7453061}, {"regionName": "Australia", "totalConfirmed": 74, "lat": -24.7761086, "lon": 134.755}, {"regionName": "Slovakia", "totalConfirmed": 3, "lat": 48.7411522, "lon": 19.4528646}, {"regionName": "Argentina", "totalConfirmed": 9, "lat": -34.9964963, "lon": -64.9672817}, {"regionName": "Bahrain", "totalConfirmed": 77, "lat": 26.1551249, "lon": 50.5344606}, {"regionName": "Saudi Arabia", "totalConfirmed": 7, "lat": 25.6242618, "lon": 42.3528328}, {"regionName": "North Macedonia", "totalConfirmed": 3, "lat": 41.6171214, "lon": 21.7168387}, {"regionName": "Netherlands", "totalConfirmed": 188, "lat": 52.5001698, "lon": 5.7480821}, {"regionName": "Belgium", "totalConfirmed": 169, "lat": 50.6402809, "lon": 4.6667145}, {"regionName": "Malta", "totalConfirmed": 1, "lat": 52.83741, "lon": 103.516983}, {"regionName": "Portugal", "totalConfirmed": 15, "lat": 40.0332629, "lon": -7.8896263}, {"regionName": "Romania", "totalConfirmed": 13, "lat": 45.9852129, "lon": 24.6859225}, {"regionName": "Peru", "totalConfirmed": 6, "lat": -6.8699697, "lon": -75.0458515}, {"regionName": "Japan", "totalConfirmed": 463, "lat": 36.5748441, "lon": 139.2394179}, {"regionName": "Vietnam", "totalConfirmed": 21, "lat": 13.2904027, "lon": 108.4265113}, {"regionName": "Germany", "totalConfirmed": 847, "lat": 51.0834196, "lon": 10.4234469}, {"regionName": "Denmark", "totalConfirmed": 27, "lat": 55.670249, "lon": 10.3333283}, {"regionName": "United Kingdom", "totalConfirmed": 206, "lat": 54.7023545, "lon": -3.2765753}, {"regionName": "Malaysia", "totalConfirmed": 93, "lat": 4.5693754, "lon": 102.2656823}, {"regionName": "Norway", "totalConfirmed": 147, "lat": 60.5000209, "lon": 9.0999715}, {"regionName": "Switzerland", "totalConfirmed": 228, "lat": 46.7985624, "lon": 8.2319736}, {"regionName": "Brazil", "totalConfirmed": 19, "lat": -10.3333333, "lon": -53.2}, {"regionName": "Greece", "totalConfirmed": 66, "lat": 38.9953683, "lon": 21.9877132}, {"regionName": "Chile", "totalConfirmed": 7, "lat": -31.7613365, "lon": -71.3187697}, {"regionName": "Sweden", "totalConfirmed": 161, "lat": 59.6749712, "lon": 14.5208584}, {"regionName": "Pakistan", "totalConfirmed": 6, "lat": 30.3308401, "lon": 71.247499}, {"regionName": "Iceland", "totalConfirmed": 50, "lat": 64.9841821, "lon": -18.1059013}, {"regionName": "Hungary", "totalConfirmed": 5, "lat": 47.1817585, "lon": 19.5060937}, {"regionName": "Slovenia", "totalConfirmed": 12, "lat": 45.8133113, "lon": 14.4808369}, {"regionName": "Afghanistan", "totalConfirmed": 4, "lat": 33.7680065, "lon": 66.2385139}, {"regionName": "Georgia", "totalConfirmed": 13, "lat": 32.3293809, "lon": -83.1137366}, {"regionName": "Poland", "totalConfirmed": 6, "lat": 52.215933, "lon": 19.134422}, {"regionName": "Paraguay", "totalConfirmed": 1, "lat": -23.3165935, "lon": -58.1693445}, {"regionName": "Spain", "totalConfirmed": 516, "lat": 39.3262345, "lon": -4.8380649}, {"regionName": "Lebanon", "totalConfirmed": 28, "lat": 33.8750629, "lon": 35.843409}, {"regionName": "Singapore", "totalConfirmed": 138, "lat": 1.357107, "lon": 103.8194992}, {"regionName": "Algeria", "totalConfirmed": 19, "lat": 28.0000272, "lon": 2.9999825}, {"regionName": "Shandong", "totalConfirmed": 758, "lat": 25.017694, "lon": 121.174159}, {"regionName": "Zhejiang", "totalConfirmed": 1215, "lat": 29.0000001, "lon": 119.9999999}, {"regionName": "Jiangxi", "totalConfirmed": 935, "lat": 22.7782596, "lon": 108.0977925}, {"regionName": "Xinjiang", "totalConfirmed": 76, "lat": 35.6250478, "lon": 111.2209922}, {"regionName": "Henan", "totalConfirmed": 1272, "lat": 34.5134583, "lon": 101.5456887}, {"regionName": "Shanghai", "totalConfirmed": 342, "lat": 31.2322758, "lon": 121.4692071}, {"regionName": "Croatia", "totalConfirmed": 12, "lat": 45.5643442, "lon": 17.0118954}, {"regionName": "Cameroon", "totalConfirmed": 2, "lat": 4.6125522, "lon": 13.1535811}, {"regionName": "Philippines", "totalConfirmed": 6, "lat": 12.7503486, "lon": 122.7312101}, {"regionName": "Costa Rica", "totalConfirmed": 1, "lat": 10.2735633, "lon": -84.0739102}, {"regionName": "Hainan", "totalConfirmed": 168, "lat": 35.8172501, "lon": 100.3405266}, {"regionName": "Togo", "totalConfirmed": 1, "lat": 8.7800265, "lon": 1.0199765}, {"regionName": "Qatar", "totalConfirmed": 11, "lat": 25.3336984, "lon": 51.2295295}, {"regionName": "Italy", "totalConfirmed": 5883, "lat": 42.6384261, "lon": 12.674297}, {"regionName": "Thailand", "totalConfirmed": 50, "lat": 14.8971921, "lon": 100.83273}, {"regionName": "New Zealand", "totalConfirmed": 5, "lat": -41.5000831, "lon": 172.8344077}, {"regionName": "United Arab Emirates", "totalConfirmed": 45, "lat": 24.0002488, "lon": 53.9994829}, {"regionName": "Colombia", "totalConfirmed": 1, "lat": 2.8894434, "lon": -73.783892}, {"regionName": "Estonia", "totalConfirmed": 10, "lat": 58.7523778, "lon": 25.3319078}, {"regionName": "France", "totalConfirmed": 949, "lat": 46.603354, "lon": 1.8883335}, {"regionName": "Luxembourg", "totalConfirmed": 3, "lat": 49.6112768, "lon": 6.129799}, {"regionName": "Taiwan", "totalConfirmed": 45, "lat": 23.9739374, "lon": 120.9820179}, {"regionName": "Beijing", "totalConfirmed": 428, "lat": 39.906217, "lon": 116.3912757}, {"regionName": "Guizhou", "totalConfirmed": 146, "lat": 27.0, "lon": 107.0}, {"regionName": "Guangxi", "totalConfirmed": 252, "lat": 24.0, "lon": 109.0}, {"regionName": "Oman", "totalConfirmed": 16, "lat": 42.2679001, "lon": 26.9246399}, {"regionName": "Indonesia", "totalConfirmed": 4, "lat": -8.1153337, "lon": 115.1083287}, {"regionName": "Senegal", "totalConfirmed": 4, "lat": 14.4750607, "lon": -14.4529612}, {"regionName": "Belarus", "totalConfirmed": 6, "lat": 53.4250605, "lon": 27.6971358}, {"regionName": "Chongqing", "totalConfirmed": 576, "lat": 29.5585712, "lon": 106.5492822}, {"regionName": "Kuwait", "totalConfirmed": 58, "lat": 29.2733964, "lon": 47.4979476}, {"regionName": "Ecuador", "totalConfirmed": 13, "lat": -1.3397668, "lon": -79.3666965}, {"regionName": "Hebei", "totalConfirmed": 318, "lat": 47.5509454, "lon": 130.4489398}, {"regionName": "Fujian", "totalConfirmed": 296, "lat": 23.3478, "lon": 109.674}, {"regionName": "Jilin", "totalConfirmed": 93, "lat": 43.8417717, "lon": 126.5605066}, {"regionName": "Macau", "totalConfirmed": 10, "lat": 22.1899448, "lon": 113.5380454}, {"regionName": "Yunnan", "totalConfirmed": 174, "lat": 22.2250509, "lon": 113.5475771}, {"regionName": "Jordan", "totalConfirmed": 1, "lat": 22.3050921, "lon": 114.1716158}, {"regionName": "Ukraine", "totalConfirmed": 1, "lat": 49.4770344, "lon": 31.995622}, {"regionName": "Morocco", "totalConfirmed": 1, "lat": 31.1728205, "lon": -7.3362482}, {"regionName": "Tunisia", "totalConfirmed": 1, "lat": 33.8439408, "lon": 9.400138}, {"regionName": "Liechtenstein", "totalConfirmed": 1, "lat": 47.1416307, "lon": 9.5531527}, {"regionName": "Latvia", "totalConfirmed": 1, "lat": 56.8406494, "lon": 24.7537645}, {"regionName": "Shanxi", "totalConfirmed": 133, "lat": 24.5031383, "lon": 118.4304558}, {"regionName": "Armenia", "totalConfirmed": 1, "lat": 40.7696272, "lon": 44.6736646}, {"regionName": "Nepal", "totalConfirmed": 1, "lat": 28.1083929, "lon": 84.0917139}, {"regionName": "Monaco", "totalConfirmed": 1, "lat": 53.9103784, "lon": 27.5465197}, {"regionName": "Nigeria", "totalConfirmed": 1, "lat": 9.6000359, "lon": 7.9999721}, {"regionName": "Andorra", "totalConfirmed": 1, "lat": 42.5407167, "lon": 1.5732033}, {"regionName": "Azerbaijan", "totalConfirmed": 3, "lat": 40.3936294, "lon": 47.7872508}, {"regionName": "Lithuania", "totalConfirmed": 1, "lat": 55.3500003, "lon": 23.7499997}, {"regionName": "Dominican Republic", "totalConfirmed": 1, "lat": 19.0974031, "lon": -70.3028026}, {"regionName": "Tianjin", "totalConfirmed": 136, "lat": 39.1235635, "lon": 117.1980785}, {"regionName": "Xizang", "totalConfirmed": 1, "lat": 33.873776, "lon": 103.951606}]}